name,population,total_area,closed_forest,cultivated,herbaceous_vegetation,herbaceous_wetland,open_forest,permanent_water,shrubs,urban,city_mean_elevation,city_elevation_delta,region_mean_elevation,region_elevation_delta,realm,latitude,longitude,city_includes_estuary,region_includes_estuary,pop1950,pop1955,pop1960,pop1965,pop1970,pop1975,pop1980,pop1985,pop1990,pop1995,pop2000,pop2005,pop2010,pop2015,pop2020,country_code,biome_name,number_of_biomes
Accra,4424295,85209.0766863909,0.00143100694867537,0.0383834797520611,0.0587572490153582,0.0144846812621006,0.0140421707222855,0.0190832158604073,0.017808900124566,0.822085474078703,32.8210152119612,121,0.0,701,Afrotropic,5.55,-0.2,true,true,180,260,390,500,630,740,860,1010,1200,1420,1670,1980,2120,2330,2690,GH,"Tropical & Subtropical Grasslands, Savannas & Shrublands",2
Addis Ababa,3835602,39212.25986541,0.00859518361349299,0.157676970140833,0.0832978047833693,3.10509792836432e-05,0.0514973191032244,0.0,0.00894170864875872,0.689811034836669,2427.43696352894,412,0.0,2286,Afrotropic,9.02,38.7,false,false,390,450,520,600,730,930,1180,1480,1790,2160,2490,2900,3100,3450,4180,ET,Montane Grasslands & Shrublands,1
Agra,2421647,20953.2266960227,0.000697188523709214,0.372496770181028,0.0227285528415237,0.00893291275342012,0.0190408158347539,0.0,0.00199798619548983,0.56977052060439,182.728398916998,15,0.0,153,Indomalayan,27.18,78.02,false,false,370,430,500,560,620,680,740,830,930,1100,1290,1510,1590,1700,1900,IN,Tropical & Subtropical Moist Broadleaf Forests,1
Ahmedabad,6671671,36219.3137298896,0.000956490784890573,0.227567226298401,0.0119011972007709,0.0105909283321719,0.010129287729536,0.00125976835083149,0.00132975548143324,0.729569910327731,61.0,0,0.0,442,Indomalayan,23.03,72.56,false,true,860,1010,1180,1410,1700,2050,2480,2860,3260,3790,4430,5120,5380,5730,6320,IN,Tropical & Subtropical Dry Broadleaf Forests,2
Amman,3680236,55076.4737051156,1.14009846974245e-05,0.129853227915296,0.16456886844051,0.0,0.0036034780467649,5.21480017550359e-05,0.0163091852979036,0.63437773169894,793.067331663459,343,0.0,1650,Palearctic,31.94,35.93,false,true,90,140,220,300,390,500,640,740,850,970,1010,1040,1060,1110,1180,JO,"Mediterranean Forests, Woodlands & Scrub",2
Ankara,2995915,37815.5300065411,0.00577040041117515,0.0554232783241243,0.169978096884819,8.91374034833753e-05,0.0242366180952942,0.00127139366087133,0.00488851166620729,0.736983005339914,1027.14338950207,587,0.0,1416,Palearctic,39.92,32.85,false,false,280,440,640,950,1340,1710,1890,2210,2560,2840,3180,3570,3720,3910,4180,TU,Temperate Broadleaf & Mixed Forests,1
Antananarivo,2148091,25742.0302101363,6.93920602421047e-05,0.347319235043698,0.0730618117260063,0.0140984256982474,0.00253281019883682,0.00988415063574011,0.00145560051072556,0.551092829704809,1380.37129977253,182,0.0,1646,Afrotropic,-18.9,47.52,false,false,180,190,250,300,360,450,580,740,950,1170,1360,1590,1700,1880,2230,MA,Tropical & Subtropical Moist Broadleaf Forests,1
Athens,3314764,43702.2978121864,0.0197848013844006,0.0152263276324054,0.0329042583175159,0.000453712258688047,0.0332712870699179,0.00241006836431782,0.0306568257812205,0.788981319787798,231.415633438622,411,0.0,1358,Palearctic,37.94,23.65,false,true,1350,1560,1810,2120,2480,2740,2990,3050,3070,3120,3180,3230,3240,3260,3280,GR,"Mediterranean Forests, Woodlands & Scrub",1
Bamako,2969125,33025.7998238179,8.63126231929351e-05,0.0287128813410161,0.0838078647159637,0.0347361485163819,0.0310449017446432,0.0400551498172767,0.0408710015536271,0.740016901478372,388.42004625322,60,0.0,336,Afrotropic,12.65,-7.98,false,false,90,110,130,160,220,360,490,610,750,910,1110,1370,1490,1710,2130,ML,"Tropical & Subtropical Grasslands, Savannas & Shrublands",1
Bangkok,14765469,259318.576234489,0.00493965039962415,0.129496066186949,0.00565673820782334,0.0161341198449582,0.0633502954443047,0.0161097377207929,0.00167449539713747,0.756648352650176,1.4073148726623,30,0.0,1067,Indomalayan,13.75,100.51,true,true,1360,1710,2150,2580,3110,3840,4720,5280,5890,6110,6330,6580,6700,6920,7330,TH,Tropical & Subtropical Moist Broadleaf Forests,2
Barcelona,3831296,58169.5522455748,0.0671300769271011,0.043411202405155,0.016626462813931,0.00246862844533713,0.0893798249537255,0.00494802982977698,0.0649847122544185,0.64793653234437,72.674894423354,500,0.0,2295,Palearctic,41.38,2.18,true,true,1810,2100,2470,2930,3480,3680,3840,3970,4100,4320,4560,4820,4920,5060,5170,SP,"Mediterranean Forests, Woodlands & Scrub",1
Beijing,17992304,212624.293210342,0.00120043663230153,0.166085551383782,0.0261364263971194,0.00760726038164741,0.0248102260230386,0.00328111114275092,0.029375955677439,0.741477881779851,60.044933805838,168,0.0,1524,Palearctic,39.9,116.38,false,false,4330,4630,4940,5280,5650,6030,6450,6890,7360,8490,9780,10720,11110,11740,12840,CH,Temperate Broadleaf & Mixed Forests,1
Beirut,2463343,26540.5212463818,0.0732582745912013,0.0100302044371391,0.0298409319622893,5.17842570375567e-05,0.0598286875239439,0.0111753472819814,0.0278011399238041,0.610203042010334,0.0,1303,0.0,2664,Palearctic,33.88,35.49,true,true,320,420,560,730,920,1500,1620,1580,1290,1270,1490,1780,1850,1940,2050,LE,"Mediterranean Forests, Woodlands & Scrub",1
Belo Horizonte,4040689,59266.8421944635,0.0327045460381789,0.0186969331226027,0.0984742069004156,0.00162506916057159,0.0617651762223034,0.00268996687296166,0.0124104414370458,0.771514599008757,935.953445713731,259,0.0,961,Neotropic,-19.85,-43.9,false,false,410,570,780,1080,1480,1910,2440,2950,3550,4090,4660,5300,5580,5940,6360,BR,Tropical & Subtropical Moist Broadleaf Forests,2
Bengaluru,10642640,64455.2724739798,0.00351498579026838,0.215625293028347,0.00786697724765817,0.00415430988758834,0.0460855101311228,0.00180017021362923,0.0490705018351247,0.671054525129967,776.496833423209,122,0.0,640,Indomalayan,12.97,77.58,false,false,750,940,1170,1380,1620,2110,2810,3400,4040,4740,5570,6460,6790,7230,7970,IN,Tropical & Subtropical Dry Broadleaf Forests,2
Berlin,3271465,68447.1113455539,0.0820460363711363,0.0534777345030616,0.0105895730179769,0.0080176371242548,0.134204307504963,0.0126690425436765,0.0,0.698995668934931,45.3611976995529,43,0.0,143,Palearctic,52.51,13.32,false,false,3350,3300,3260,3230,3210,3130,3060,3060,3420,3470,3380,3390,3410,3420,3430,GM,Temperate Broadleaf & Mixed Forests,1
Birmingham,2426845,66650.6755452162,0.0152188413615634,0.0435274192130498,0.0434157009476419,0.00121981212327565,0.144237695590949,0.00149704215129284,2.63096732471218e-06,0.750847590041541,129.406820103707,93,0.0,559,Palearctic,52.49,-1.86,false,true,2230,2280,2340,2360,2370,2360,2360,2330,2300,2290,2280,2280,2280,2290,2300,UK,Temperate Broadleaf & Mixed Forests,1
Bogota,8608349,53679.5391698351,0.0114497496444309,0.065634553782189,0.219106974266881,0.0041905133728242,0.0222153323625582,0.000443126424910308,0.0156309226073182,0.661144191528509,2615.69040730786,1036,0.0,3292,Neotropic,4.63,-74.08,false,false,630,890,1270,1780,2380,3040,3520,4090,4740,5490,6360,7350,7770,8320,8920,CO,Tropical & Subtropical Moist Broadleaf Forests,2
Boston,2071403,95286.7084388082,0.103501448497174,0.00688769288857941,0.00969980306603683,0.0184174678314982,0.1981620616911,0.035050396643632,9.14033819878613e-05,0.523510114792343,10.401622426608,59,0.0,490,Nearctic,42.37,-71.1,true,true,2550,2680,2820,3000,3190,3230,3280,3350,3430,3730,4050,4360,4470,4600,4770,US,Temperate Broadleaf & Mixed Forests,1
Buenos Aires,13946188,198655.021179434,0.00385743109357879,0.0195478287316804,0.130104418737747,0.0130799458572766,0.018707115798902,0.0033454957306305,0.0105997174011221,0.782994886658318,12.0417794984398,30,0.0,76,Neotropic,-34.62,-58.44,true,true,5100,5800,6600,7320,8100,8740,9420,9960,10510,11150,11850,12550,12800,13090,13430,AR,"Temperate Grasslands, Savannas & Shrublands",1
Cairo,20062493,165429.774048309,0.00062771071595408,0.342631378768696,0.0047096550071152,0.0077569235691255,0.0169590840107374,0.0157306955571141,0.0138283781435359,0.50732476793003,102.813900967848,299,0.0,610,Palearctic,30.07,31.25,false,true,2490,3030,3680,4740,5580,6450,7350,8330,9060,9710,10530,11490,11890,12500,13460,EG,Flooded Grasslands & Savannas,2
Cali,2324003,17161.4547482093,0.0244525914717601,0.105801232170364,0.105976600984382,0.00866349200652136,0.0255154809546515,5.7926227428364e-05,0.0164001643741889,0.713132511810704,1021.04612112721,305,0.0,3657,Neotropic,3.45,-76.52,false,true,230,330,470,660,850,1050,1190,1360,1550,1760,1950,2160,2250,2380,2540,CO,Tropical & Subtropical Dry Broadleaf Forests,2
Cape Town,3511855,69544.4582754607,0.000912731226244104,0.0208227844597365,0.149390013622444,0.00367008854414297,0.0236714691004514,0.00479989153767376,0.10630310675111,0.664403795763302,100.887874841834,305,0.0,1219,Afrotropic,-33.97,18.48,false,true,620,700,800,940,1110,1340,1610,1920,2160,2390,2720,3090,3220,3360,3500,SF,"Mediterranean Forests, Woodlands & Scrub",1
Caracas,3103791,32926.5808312397,0.139592540407124,6.59628408563723e-05,0.0800701550437039,0.000468864792149824,0.174118456621215,6.59628408563723e-05,0.0329564832566429,0.572661574197451,880.497615881193,655,0.0,1585,Neotropic,10.49,-66.89,false,true,690,960,1320,1660,2060,2340,2580,2690,2770,2820,2860,2930,2980,3100,3310,VE,Deserts & Xeric Shrublands,2
Casablanca,3988346,39312.1245572396,3.52233005310015e-05,0.336065026909221,0.0228271850947147,0.000845359212744037,0.0073360465864754,0.00463172588923639,0.0127368145373053,0.564759350266854,35.9532140681825,182,0.0,900,Palearctic,33.6,-7.63,false,true,620,780,970,1210,1500,1790,2110,2410,2680,2950,3040,3140,3180,3270,3480,MO,"Mediterranean Forests, Woodlands & Scrub",1
Chandigarh,2179840,27537.8985912298,0.0100764528499442,0.328347049552758,0.0178525135618095,0.000888224471214425,0.026288125060661,0.00250070482334459,0.00131952173692001,0.61267383716753,387.448096161447,252,0.0,2926,Indomalayan,30.73,76.78,false,false,40,60,90,140,220,300,410,480,560,670,790,930,980,1050,1170,IN,Deserts & Xeric Shrublands,1
Chengdu,9321712,132503.095183397,0.000159060142356207,0.232706036439404,0.0035533695146388,0.001604358684639,0.0112065775255836,0.000802747102300455,0.00136506968958967,0.748602780901488,525.612675260418,122,0.0,3383,Palearctic,30.67,104.07,false,false,770,920,1110,1330,1590,1910,2290,2640,2960,3400,3920,4060,4120,4270,4630,CH,Temperate Broadleaf & Mixed Forests,1
Chennai,10004085,94693.7961523715,0.00945645878245307,0.259861811521617,0.00909842481924227,0.00884438428612589,0.0326814751062049,0.0114997276596045,0.00478040263227731,0.627472467337295,19.8244391025318,91,0.0,366,Indomalayan,13.06,80.24,false,true,1490,1700,1920,2400,3060,3610,4200,4750,5340,5840,6350,6920,7160,7560,8310,IN,Tropical & Subtropical Dry Broadleaf Forests,2
Chicago,6790888,384636.835756269,0.0780157684331305,0.031308043723425,0.0817916286721156,0.00592484584206783,0.155530482910266,0.0213478908375364,0.000901685645975474,0.625179653935484,194.560691574996,81,0.0,238,Nearctic,41.82,-87.64,false,false,5000,5560,6180,6640,7110,7160,7220,7280,7370,7840,8330,8820,8990,9210,9520,US,"Temperate Grasslands, Savannas & Shrublands",2
Coimbatore,2199961,36518.2654938602,0.00530547151794608,0.314990322048277,0.0102899626287097,0.00280733925625493,0.0475100574893672,0.00234383859105712,0.0199141077911694,0.59654921276147,349.255543370234,182,0.0,1981,Indomalayan,11.01,76.97,false,true,280,350,440,560,710,810,910,1000,1090,1240,1420,1620,1700,1810,2010,IN,Tropical & Subtropical Moist Broadleaf Forests,2
Colombo,4434558,121628.030517778,0.251757938153939,0.017877470942742,0.00270462996702741,0.00190845689797138,0.142946097124175,0.0270146632344198,0.000405187297685705,0.507063531700865,64.948667484156,160,0.0,1707,Indomalayan,6.93,79.84,true,true,0,0,0,0,0,0,0,0,0,0,0,0,0,0,0,CE,Tropical & Subtropical Moist Broadleaf Forests,2
Curitiba,2346995,49589.0112027926,0.0255092705655651,0.0117596279472894,0.0849494750380928,0.00710317890239612,0.119260243634616,0.00115719623325453,0.000508890988216118,0.749653683920409,865.934773786516,389,0.0,1219,Neotropic,-25.43,-49.28,false,true,160,240,380,500,650,920,1310,1550,1830,2140,2490,2910,3080,3320,3580,BR,Tropical & Subtropical Moist Broadleaf Forests,1
Dakar,3367895,28336.7266480947,0.0,0.0226077960152564,0.139016787688624,0.0230322434104445,0.00684887903662451,0.00600527853989063,0.0571407947664487,0.546323842644813,0.0,61,0.0,91,Afrotropic,14.68,-17.45,false,false,210,240,360,470,610,780,960,1160,1400,1690,2030,2430,2600,2860,3280,SG,"Tropical & Subtropical Grasslands, Savannas & Shrublands",1
Dallas,5195004,374261.429525391,0.0425269399414057,0.0103181778072098,0.137276092096327,0.00249493460439882,0.151736052422156,0.0189635612951139,0.00354241834792845,0.632399020032975,170.506509842189,113,0.0,378,Nearctic,32.76,-96.66,false,false,870,1120,1450,1720,2020,2230,2470,2820,3220,3660,4170,4660,4800,4960,5150,US,"Temperate Grasslands, Savannas & Shrublands",1
Delhi [New Delhi],26658957,248842.228712841,0.000160638929104819,0.374390745666406,0.0444629414773603,0.00409317925289838,0.0141661244698991,0.000142818426486931,0.00520730593118298,0.555964004329206,217.005360457085,76,0.0,336,Indomalayan,28.66,77.21,false,false,1370,1780,2280,2840,3530,4430,5560,6770,8210,10090,12440,15050,15930,17020,18670,IN,Tropical & Subtropical Moist Broadleaf Forests,2
Denver,2230488,135995.801665213,0.0106854681802306,0.0326911132157067,0.192674799866799,0.00182784866128546,0.0635659333993098,0.0137690172002051,0.000805235043795068,0.683833288452449,1661.3650418712,327,0.0,2435,Nearctic,39.57,-105.07,false,false,500,640,810,920,1050,1200,1360,1440,1530,1750,2000,2240,2310,2400,2500,US,"Temperate Grasslands, Savannas & Shrublands",2
Detroit,3297724,259120.202563353,0.0663955777416077,0.0167681879166156,0.0716546961974266,0.00248511799601202,0.144482780498527,0.0374448974118483,0.00169845844818665,0.659070283789777,192.311554945916,176,0.0,303,Nearctic,42.39,-83.07,false,false,2770,3140,3550,3760,3970,3880,3810,3750,3700,3800,3910,4040,4100,4200,4360,US,Temperate Broadleaf & Mixed Forests,1
Dhaka,23978196,326170.515174896,0.0703438386711877,0.427764808896371,0.0100328783946246,0.0243619440050589,0.154423259939144,0.0176861412432938,0.000721642729812999,0.293515673658147,26.4303292436001,61,0.0,381,Indomalayan,23.7,90.4,true,true,340,410,510,820,1370,2220,3270,4660,6620,8330,10280,12580,13480,14800,17020,BG,Tropical & Subtropical Moist Broadleaf Forests,2
Dortmund,3447957,131505.657905851,0.128138143557333,0.0964740497205814,0.0114526522344995,0.00419522062550097,0.205902317097474,0.00989782123842541,2.64770398378733e-05,0.543913318486347,78.7378303453392,176,0.0,647,Palearctic,51.52,7.47,false,false,0,0,0,0,0,0,0,0,0,0,0,0,0,0,0,GM,Temperate Broadleaf & Mixed Forests,1
Dubai,4888280,77226.9165576314,0.00010573537272403,0.0197670828037753,0.00139139457534414,0.000325747877694111,0.00564033942962027,0.0246090994369031,0.00410775703305051,0.65385713724754,18.5408537102657,92,0.0,1524,Palearctic,25.27,55.32,false,false,20,30,40,50,80,170,250,340,470,650,940,1270,1380,1520,1710,AE,Deserts & Xeric Shrublands,2
Durban,2868758,74632.6043362706,0.0628673476055995,0.023976798158309,0.11077992841453,0.00105610988496215,0.101368131415895,0.00335857850977488,0.0170658823029245,0.648736014451341,38.1502290691486,197,0.0,1524,Afrotropic,-29.83,30.94,false,true,480,570,680,760,860,1020,1210,1450,1720,2080,2370,2640,2730,2840,2960,SF,Tropical & Subtropical Moist Broadleaf Forests,3
Fortaleza,3204917,40110.0691693346,0.0156982227424749,0.0699665436726518,0.0454747328441996,0.0367399985257422,0.0371836355059924,0.00943690055471133,0.0178862038125393,0.723920278590038,5.82955785351576,30,0.0,457,Neotropic,-3.78,-38.58,false,true,260,360,500,660,870,1140,1490,1820,2230,2550,2880,3240,3390,3600,3850,BR,Tropical & Subtropical Dry Broadleaf Forests,1
Fukuoka,2138386,50386.9050328343,0.0892599945900422,0.0410078252599778,0.0130324386826101,0.00214308029380564,0.0813938986428612,0.0146363010110889,3.35091991640801e-05,0.655260429778645,103.448302685111,310,0.0,1211,Palearctic,33.57,130.4,true,true,950,1150,1340,1490,1650,1850,2030,2220,2490,2620,2720,2770,2790,2820,2830,JA,Temperate Broadleaf & Mixed Forests,1
Fuzhou,3036658,34223.1817773162,0.0594028793964521,0.0257260516465985,0.00878974430799332,0.0164350300641806,0.0712201243865165,0.0874662874194536,0.00230773922103929,0.728652143557766,196.504972178438,305,0.0,1219,Indomalayan,26.07,119.3,false,false,490,600,730,870,940,1010,1100,1220,1400,1710,2100,2450,2610,2830,3170,CH,Tropical & Subtropical Moist Broadleaf Forests,1
Guadalajara,4531686,59167.4820142479,0.00162540960293036,0.156263108900938,0.00456545211435587,1.47685533136377e-05,0.0213959850500541,0.000251065406331841,0.0490068669139637,0.766729657924976,1550.29985558655,350,0.0,2059,Neotropic,20.67,-103.34,false,false,400,590,870,1150,1510,1850,2270,2620,3010,3430,3700,4050,4200,4410,4670,MX,Tropical & Subtropical Dry Broadleaf Forests,2
Guangzhou,40523718,659525.45108281,0.0572014754044901,0.0685505013869995,0.0129790966911658,0.0270212744384876,0.124530002706146,0.0338063370358067,0.00605632042508626,0.647998526274955,58.0026353107389,244,0.0,457,Indomalayan,23.09,113.29,true,true,1490,1680,1880,2120,2380,2670,3000,3420,3920,5380,7390,8420,8830,9450,10410,CH,Tropical & Subtropical Moist Broadleaf Forests,1
Guatemala City,2671636,41107.7004630591,0.132613301333232,0.0675900834030729,0.0158088892981105,0.000722783252998829,0.189063127973102,0.00452289932259459,0.0378014126049513,0.551877502811938,1545.63158891894,534,0.0,2500,Neotropic,14.61,-90.52,false,true,290,370,480,590,660,720,750,780,800,840,910,980,1020,1100,1280,GT,Tropical & Subtropical Coniferous Forests,2
Guayaquil,2749343,30431.7392288968,0.0560560660797136,0.0457555030053739,0.0672899511899534,0.0130652247033782,0.0302629991090433,0.0848882709535289,0.0242591836577494,0.651644161666269,10.4200036873275,30,0.0,3810,Neotropic,-2.2,-79.9,true,true,260,340,460,580,720,890,1120,1350,1570,1810,2080,2390,2510,2690,2940,EC,Tropical & Subtropical Moist Broadleaf Forests,3
Hangzhou,7536290,169220.888174424,0.025821014803918,0.0234378881540448,0.00628076078995523,0.0270274590755839,0.103578208231125,0.024064838667232,0.00122028942163906,0.749147340742019,54.2635515313385,274,0.0,1067,Palearctic,30.25,120.16,false,false,640,740,860,980,1030,1100,1160,1290,1480,1890,2410,2830,3010,3270,3650,CH,Temperate Broadleaf & Mixed Forests,2
Hanoi,5351791,108855.710200263,0.00319928342163538,0.398041702751617,0.00543621106747342,0.0193742752350043,0.038945756062381,0.0297260971510273,0.00261370994069616,0.501676498034488,57.5040168982126,152,0.0,1067,Indomalayan,21.03,105.82,false,true,280,420,640,920,1310,1880,2610,2850,3130,3420,3750,4170,4380,4720,5360,VM,Tropical & Subtropical Moist Broadleaf Forests,1
Hefei,4004602,56970.267490924,0.00406216341738202,0.165859834916217,0.0334314240099607,0.0184637483327311,0.0795765694632174,0.0193553375652595,0.00817126562747054,0.671079656667762,61.0,0,0.0,549,Palearctic,31.86,117.27,false,false,260,310,370,440,530,640,760,920,1100,1340,1640,1920,2040,2210,2480,CH,Temperate Broadleaf & Mixed Forests,1
Ho Chi Minh City,11508477,147470.204341126,0.0201320926019395,0.217864170504233,0.00829250474891484,0.013622687758237,0.116363468112425,0.0313662924970203,0.00172152722061592,0.590310967392606,11.8224430210283,122,0.0,914,Indomalayan,10.75,106.66,false,true,1210,1300,1400,1760,2230,2810,3460,3720,4000,4300,4620,5070,5310,5720,6480,VM,Tropical & Subtropical Dry Broadleaf Forests,2
Hong Kong,5707285,35520.8356219265,0.234495096821162,0.018826748065777,0.00555444521932407,0.00352559237066146,0.102432616332534,0.0111768298239013,0.00386736234335661,0.318577200390374,25.6545942891989,76,0.0,305,Indomalayan,22.27,114.17,true,true,1680,2120,2620,3190,3460,3940,4610,5070,5680,6210,6660,7060,7210,7420,7740,HK,Tropical & Subtropical Moist Broadleaf Forests,1
Houston,4902555,345225.932923734,0.0596447070932837,0.0221923666049123,0.139751292933389,0.00714580310848363,0.151922651545132,0.0100352142932864,0.00595453142171063,0.597043265978536,18.7206279864428,63,0.0,138,Nearctic,29.77,-95.4,true,true,710,900,1150,1400,1690,2030,2420,2660,2920,3350,3850,4320,4460,4610,4790,US,"Tropical & Subtropical Grasslands, Savannas & Shrublands",2
Hyderabad,8139691,88502.3358297108,0.00114759602076563,0.310074287273046,0.0129084932730308,0.00348500542949953,0.0238833989319046,0.00587038728981164,0.0446886326297829,0.59790114889997,537.137817293167,92,0.0,549,Indomalayan,17.39,78.48,false,false,1100,1180,1240,1460,1750,2090,2490,3210,4190,4820,5440,6120,6380,6760,7450,IN,Tropical & Subtropical Dry Broadleaf Forests,1
Indore,2886762,28236.8918914329,0.00224093673254935,0.413209318871532,0.0273876933779547,0.00421282895291674,0.00822042447698797,0.00040633859906482,0.00210423239689881,0.541849632071899,514.627612971189,122,0.0,488,Indomalayan,22.42,75.54,false,false,300,340,390,460,550,660,810,940,1090,1310,1600,1910,2030,2180,2420,IN,Tropical & Subtropical Dry Broadleaf Forests,1
Istanbul,14109075,134099.369160429,0.0960475947906592,0.04287637310869,0.0702165374953682,0.0014527605333948,0.0345157406436748,0.0382231613241348,0.00856512559273794,0.627726053539768,44.228190415493,218,0.0,1714,Palearctic,41.06,29.0,false,false,970,1250,1450,2000,2770,3600,4400,5410,6550,7660,8740,9710,10060,10530,11180,TU,Temperate Broadleaf & Mixed Forests,2
Izmir,2792996,35220.7702574692,0.0641935820670881,0.0650559878382101,0.0823237436894041,0.000564798718680251,0.0633885972717126,0.0039484763357725,0.0594755146252658,0.583531527764167,219.175948963166,848,0.0,1378,Palearctic,38.43,27.14,false,true,220,290,360,560,880,1050,1220,1470,1740,1970,2220,2490,2590,2720,2920,TU,"Mediterranean Forests, Woodlands & Scrub",1
Jaipur,3605858,34323.4073642092,0.000161818576083559,0.22385465083812,0.0347646133506036,0.00123970253666256,0.0368752352488543,0.000277403273286101,0.00921169242105247,0.691421766112417,401.576682857433,114,0.0,336,Indomalayan,26.9,75.8,false,false,290,350,400,500,620,780,980,1210,1480,1830,2260,2750,2920,3140,3480,IN,Tropical & Subtropical Dry Broadleaf Forests,1
Jakarta,36337674,503770.359337652,0.0303732595908911,0.264574932867875,0.0362630312054227,0.0130433489179202,0.0845023333307967,0.00243600201586623,0.00180231561955115,0.559369862603447,207.798712418762,1067,0.0,1615,Indomalayan,-6.16,106.8,true,true,1450,1970,2680,3300,3920,4810,5980,7010,8180,8320,8390,8840,9120,9700,10790,ID,Tropical & Subtropical Moist Broadleaf Forests,1
Johannesburg,6516242,163433.717480455,0.000272580590796448,0.0323507808307815,0.248061546290918,0.0035943383761771,0.0153705487855624,0.0026235496209672,0.00327806313210216,0.689385122514331,1610.62222193769,182,0.0,640,Afrotropic,-26.17,28.0,false,false,900,1020,1150,1290,1440,1550,1660,1770,1900,2260,2730,3260,3440,3620,3780,SF,Montane Grasslands & Shrublands,1
Kampala,3483006,52682.1360034348,0.00190593338691117,0.0883170139381365,0.034047505462108,0.00712512835684588,0.103742124456343,0.00319371818382892,0.0431596992083018,0.718508877007525,1181.43451002774,46,0.0,244,Afrotropic,0.32,32.57,false,false,100,110,140,220,340,400,470,600,760,910,1100,1320,1420,1600,1980,UG,"Tropical & Subtropical Grasslands, Savannas & Shrublands",1
Kanpur,3768333,24345.4515069031,0.0037377575104365,0.265583611287651,0.0339354259414752,0.00465383412016183,0.0367232162600571,0.00367757917638927,0.00240197890072869,0.634546384222814,122.0,0,0.0,122,Indomalayan,26.45,80.31,false,false,690,810,950,1090,1250,1420,1610,1800,2000,2290,2640,3020,3160,3370,3730,IN,Tropical & Subtropical Moist Broadleaf Forests,1
Kaohsiung,2413426,45199.4222598006,0.0214711058323583,0.0891837912798837,0.00176587551727722,0.00734594483408423,0.0573686891809897,0.0581447248228927,0.000413600603370292,0.733919378109838,104.805308396228,229,0.0,2956,Indomalayan,22.6,120.28,true,true,260,340,440,590,810,990,1160,1290,1380,1420,1470,1520,1540,1600,1740,CH,Tropical & Subtropical Moist Broadleaf Forests,1
Kathmandu,3529232,27039.4496025607,0.0381523365832682,0.329295479326625,0.0116686768381723,0.0,0.0806228165623002,0.0,0.00341407679800669,0.536846613891628,1524.0,0,0.0,6949,Indomalayan,27.71,85.31,false,false,100,110,120,130,150,180,220,300,400,510,640,820,900,1030,1280,NP,Temperate Broadleaf & Mixed Forests,1
Khartoum,5842495,74831.8395147208,0.00150871746261172,0.0922487858122168,0.0157221356591604,0.00134024158780898,0.00236491825986051,0.0377038241647265,0.00560567828683022,0.698315284898572,377.507285160335,30,0.0,183,Afrotropic,15.55,32.52,false,false,180,250,350,480,660,890,1160,1610,2360,3240,3950,4520,4750,5180,6080,SU,"Tropical & Subtropical Grasslands, Savannas & Shrublands",1
Kochi,2560750,73136.9872966307,0.250607475137331,0.0233633189501012,0.00710340477635919,0.0338226094780751,0.170632370749347,0.0784591012740091,0.000850709022755403,0.381068149792438,46.2638797707639,198,0.0,1524,Indomalayan,9.97,76.27,true,true,160,210,270,340,420,530,670,860,1100,1230,1340,1460,1520,1610,1790,IN,Tropical & Subtropical Moist Broadleaf Forests,1
Kolkata,21615073,281270.276549317,0.0793474278730182,0.355261546901774,0.00493645789273431,0.0281790178610376,0.230683823141466,0.0320555870068375,0.00040848221982442,0.267894245907032,0.0,0,0.0,91,Indomalayan,22.54,88.33,true,true,4510,5060,5650,6260,6930,7890,9030,9950,10890,11920,13060,14280,14790,15580,17040,IN,Tropical & Subtropical Moist Broadleaf Forests,1
Kozhikode,2192699,47194.5073896827,0.411537017445327,0.033118703725551,0.00154820160458106,0.00305149427498833,0.263467475442271,0.012770649115968,0.000976350540474635,0.203180940488802,115.585622403995,229,0.0,1981,Indomalayan,26.28,75.77,false,true,160,180,220,260,320,410,530,640,780,840,880,920,950,1010,1120,IN,Tropical & Subtropical Moist Broadleaf Forests,1
Kuala Lumpur,6345813,133401.820714794,0.0891227087602882,0.0398528395522207,0.0194129622426709,0.0036449357137538,0.0989416828420391,0.0110176120218998,0.00136298997981971,0.733382382526024,215.135116973662,686,0.0,914,Indomalayan,3.14,101.7,false,true,210,280,340,390,450,640,920,1020,1120,1210,1310,1400,1450,1520,1670,MY,Tropical & Subtropical Moist Broadleaf Forests,1
Kunming,3068953,36318.6978564058,0.0270824245627553,0.0510701646948777,0.0199495263072057,0.00776793209984642,0.0631550002635655,0.00833698610461041,0.0151902218231592,0.807357530422367,2022.72323876205,213,0.0,1174,Palearctic,25.05,102.7,false,false,640,740,860,980,1100,1220,1360,1490,1610,2040,2590,2840,2930,3100,3400,CH,Tropical & Subtropical Moist Broadleaf Forests,1
Kuwait City,3171818,48092.7406303242,0.0,0.0106416928066838,0.00562396139995096,0.0,0.00360474299879912,0.00700982459212933,0.00523925400206857,0.71266611949698,4.72854277829554,53,0.0,274,Palearctic,29.38,47.97,false,true,60,110,180,300,550,690,890,1120,1390,1190,1500,1890,2060,2300,2590,KU,Deserts & Xeric Shrublands,1
Kyiv,2736313,51683.93473951,0.0928816298350726,0.0324812876284429,0.0196951823402414,0.0407777809746759,0.119971913287387,0.0640320424596121,0.0,0.630160163474568,118.919730189335,75,0.0,161,Palearctic,50.44,30.5,false,false,820,970,1160,1390,1660,1930,2200,2410,2570,2590,2610,2670,2710,2750,2770,UP,Temperate Broadleaf & Mixed Forests,1
Lanzhou,2364579,24644.9493424996,0.000370140275906916,0.0257260970252749,0.226408585927287,7.93157734086249e-05,0.00269134489691645,0.0273746209431796,0.00584935684757437,0.6913686398081,1977.75645202722,305,0.0,2682,Palearctic,36.11,103.59,false,false,350,430,540,670,840,1040,1300,1490,1620,1830,2070,2410,2560,2780,3120,CH,Montane Grasslands & Shrublands,1
Las Vegas,2026403,87603.3513390955,4.4558191119168e-05,0.0109519374090798,0.0215031132050937,0.0,0.00336621116254912,0.000170806399290144,0.0683259962301439,0.760759936746008,645.962984718177,430,0.0,2640,Nearctic,36.17,-115.13,false,false,40,60,90,150,240,320,440,560,710,970,1340,1720,1820,1920,2010,US,Deserts & Xeric Shrublands,1
Lima,9262110,87505.3176631815,0.000326845193181293,0.00399379075405808,0.0140351800236461,1.09076723283902e-05,0.00271759309163642,0.00411313352188635,0.0655659755907681,0.615565505063726,618.241227462307,2285,0.0,4877,Neotropic,-12.08,-77.04,false,false,1070,1370,1760,2280,2980,3700,4440,5120,5840,6540,7120,7750,8010,8380,8860,PE,Deserts & Xeric Shrublands,1
London,9609566,185983.298509348,0.0149432486772576,0.0556490322836554,0.0573398905575708,0.00568301393236591,0.149835629711988,0.0181593484689495,0.0,0.693709917354636,53.7488869175973,146,0.0,218,Palearctic,51.48,-0.17,true,true,8360,8280,8200,7870,7510,7550,7660,7670,7650,7910,8220,8500,8570,8610,8620,UK,Temperate Broadleaf & Mixed Forests,1
Los Angeles,14284216,563741.591116852,0.000851151800604893,0.00119519319120584,0.0619950857233401,0.00054240613502833,0.054398376941056,0.00503599461953897,0.082784458782726,0.754829265585789,235.466681789875,1195,0.0,2585,Nearctic,34.0,-118.25,true,true,4050,5150,6530,7410,8380,8930,9510,10180,10880,11340,11810,12310,12500,12770,13160,US,"Mediterranean Forests, Woodlands & Scrub",1
Lucknow,4627157,37216.3545699188,0.00353717481436464,0.360246195467928,0.00956251490141693,0.00399502333470885,0.0103904248651832,4.26800850622463e-05,0.000774601700659121,0.611302004532959,122.0,0,0.0,46,Indomalayan,26.84,80.91,false,false,490,560,640,720,800,890,990,1250,1610,1910,2220,2570,2700,2880,3190,IN,Tropical & Subtropical Moist Broadleaf Forests,1
Madrid,4895942,78125.4832658977,0.0154187871590845,0.170557184253291,0.0370746191420762,6.6660230105886e-05,0.0675211782019943,0.000235968500819267,0.0710640459872516,0.638061556525377,629.730768063078,138,0.0,1393,Palearctic,40.44,-3.69,false,false,1700,2020,2390,2900,3520,3890,4250,4360,4410,4700,5040,5410,5570,5760,5920,SP,"Mediterranean Forests, Woodlands & Scrub",1
Makassar,2202527,37216.4790700012,0.00690665179387106,0.294168803171009,0.0240309809120405,0.0555035044789418,0.0465533380777218,0.0247410748626116,0.00181835777972633,0.513856270059711,87.7601787451716,549,0.0,1311,Australasia,-0.95,100.35,false,false,100,120,140,160,190,280,460,550,630,670,720,810,860,930,1060,ID,Tropical & Subtropical Moist Broadleaf Forests,1
Manaus,2016974,26041.6325686978,0.0944186494551591,0.000940664433581135,0.0647671207593508,0.0070450208080246,0.0456732357373384,0.0241242450078044,0.0168212493383963,0.745252520985177,46.6834566870233,31,0.0,61,Neotropic,-3.12,-60.01,false,false,90,120,150,210,280,410,600,760,960,1160,1390,1640,1750,1900,2060,BR,Tropical & Subtropical Moist Broadleaf Forests,1
Manchester,2202601,67149.5190916614,0.01324704046626,0.024221361300034,0.238838356853281,0.00255634039135581,0.338800216955856,0.00182878879808547,0.00139615989619381,0.377679029777766,140.061425256645,390,0.0,524,Palearctic,53.47,-2.26,false,true,2420,2420,2430,2410,2400,2370,2340,2310,2280,2260,2240,2230,2230,2240,2250,UK,Temperate Broadleaf & Mixed Forests,1
Maputo,2430922,42405.4482617409,0.0112186897941705,0.0543739893412923,0.0222989713045193,0.0245546603294147,0.0670465263218121,0.01457103851851,0.0192788622166822,0.753200103346844,9.55163025094848,30,0.0,457,Afrotropic,-25.96,32.57,true,true,90,130,180,260,370,460,550,650,780,920,1100,1330,1450,1620,1920,MZ,Tropical & Subtropical Moist Broadleaf Forests,1
Maracaibo,2140288,28436.0131519202,0.00234849520990183,0.0065543605065753,0.0375800437586504,0.00723542278828547,0.0052294524612812,0.0241884772077403,0.0381546402152922,0.829581443099732,14.1569494069375,30,0.0,1650,Neotropic,10.64,-71.63,true,true,280,370,480,570,670,790,920,1100,1300,1500,1720,1980,2070,2200,2370,VE,Deserts & Xeric Shrublands,1
Medellín,3419465,23048.0919034592,0.0553887766718567,0.000668159067475345,0.129748306625978,0.00115468754507223,0.0866647927801253,0.0,0.00504641223401936,0.721328865075473,2245.60497922635,229,0.0,2896,Neotropic,6.24,-75.59,false,false,380,520,730,990,1260,1540,1730,1950,2140,2370,2720,3130,3300,3520,3790,CO,Tropical & Subtropical Moist Broadleaf Forests,1
Melbourne,3468022,160640.303238025,0.0172317705427363,0.00156294800734986,0.0727504831371239,0.00119144948455984,0.0677448647268439,0.00631454864652896,0.00130595411794329,0.797147487783376,137.742670017262,315,0.0,1723,Australasia,-37.85,145.07,true,true,1330,1570,1850,2070,2330,2560,2760,2940,3120,3260,3430,3640,3730,3850,4010,AS,Temperate Broadleaf & Mixed Forests,1
Mexico City,19515400,209530.670154236,0.0181745294513948,0.114911362848653,0.0111468328930657,0.000901436685677388,0.086601605775198,0.00184944101479146,0.0481635273683352,0.716938222434524,2319.61629925515,1089,0.0,3415,Nearctic,19.42,-99.12,false,false,2880,3800,5010,6650,8770,10690,13010,14110,15310,16810,18020,18740,19030,19480,20190,MX,Deserts & Xeric Shrublands,2
Miami,5406809,303718.442867412,0.00655396795241434,0.0057794958204785,0.121760108400991,0.0421145924724155,0.0265335478342497,0.0224710837159792,0.0335737150049418,0.680535635455126,0.0,7,0.0,25,Neotropic,25.83,-80.27,true,true,620,920,1360,1710,2140,2590,3120,3520,3970,4430,4950,5440,5580,5760,5970,US,Flooded Grasslands & Savannas,3
Milan,3028675,76229.1234191393,0.0420809145177722,0.179510329428009,0.0070397851392171,0.000785809549360855,0.0720920974632429,0.00268885629969196,0.00700003396094963,0.688802173641756,159.141596402849,227,0.0,3642,Palearctic,45.47,9.18,false,false,1880,2100,2400,2700,3020,3130,3170,3130,3060,3020,2980,2950,2940,2940,2940,IT,Temperate Broadleaf & Mixed Forests,2
Minsk,2007511,26640.5846066253,0.0827218837238816,0.0814154821265122,0.0218084034100392,0.00780494742155673,0.0808486147276771,0.0119672629868898,0.0,0.713433405603443,214.800763147395,44,0.0,174,Palearctic,53.89,27.57,false,false,280,410,550,720,930,1120,1320,1470,1610,1650,1700,1780,1800,1850,1880,BO,Temperate Broadleaf & Mixed Forests,1
Monterrey,4230911,66950.5940776374,0.0101912473244263,0.00723968855854871,0.000886350136724526,0.000156431475872853,0.0308457533931087,4.83955430361874e-05,0.169148258844606,0.780939424864519,579.930456404068,1050,0.0,3025,Nearctic,25.67,-100.31,false,false,360,500,700,940,1270,1590,1990,2270,2590,2960,3270,3580,3710,3900,4140,MX,Deserts & Xeric Shrublands,2
Montreal,3107400,108657.819132124,0.0567915595271728,0.0263902429439193,0.0423271535647897,0.000166721645640007,0.103403468220186,0.104698366173816,0.00146032964907064,0.664554882715961,28.3038117509613,55,0.0,704,Nearctic,45.54,-73.65,false,false,1340,1650,2030,2370,2680,2790,2820,2900,3150,3300,3470,3600,3680,3780,3910,CA,Temperate Broadleaf & Mixed Forests,1
Moscow,14086870,188876.864898504,0.163628379622368,0.0662055143629553,0.0192885554223226,0.0126551861761447,0.0898347086794106,0.0137631832651725,0.0,0.634587643834781,154.656854717741,31,0.0,122,Palearctic,55.74,37.7,false,false,5360,5750,6170,6620,7110,7620,8140,8580,8990,9200,10020,10420,10450,10500,10520,RS,Temperate Broadleaf & Mixed Forests,1
Mumbai,21748204,107557.442662281,0.0286485585709737,0.210412769816995,0.0372010625711369,0.00787764897563481,0.0693282921125056,0.020435544022836,0.00627414174273979,0.525406637250958,72.6520971876117,244,0.0,914,Indomalayan,19.07,72.82,false,false,2860,3430,4060,4850,5810,7080,8660,10340,12310,14110,16090,18200,18980,20070,21950,IN,Tropical & Subtropical Moist Broadleaf Forests,1
Nagoya,7665970,265106.020396248,0.0173419158998072,0.054472102010155,0.00666249640046723,0.00284479229245551,0.0429003291403416,0.0139785835388558,0.000251775995785172,0.806666929632706,60.6151837489858,378,0.0,2390,Palearctic,35.15,136.92,true,true,990,1230,1560,1760,2000,2290,2590,2710,2950,3060,3120,3200,3230,3270,3290,JA,Temperate Broadleaf & Mixed Forests,1
Nagpur,2905694,26341.0577684644,0.00371969983473312,0.304119216450766,0.0100267416817116,0.00263618172663378,0.0166452982149084,0.00337510851654794,0.00273050180997656,0.656549567206484,320.016660109351,46,0.0,579,Indomalayan,21.15,79.08,false,false,470,560,670,780,910,1080,1270,1450,1640,1850,2090,2350,2450,2610,2900,IN,Tropical & Subtropical Dry Broadleaf Forests,1
Nairobi,3987711,33725.1160269307,0.0231087528087399,0.120540790203175,0.043952887501161,0.00035090042603208,0.0495577854495531,6.52864969782092e-05,0.0200300828118047,0.742393514302556,1620.61449664784,275,0.0,2407,Afrotropic,-1.26,36.8,false,false,140,200,290,400,530,680,860,1090,1380,1760,2230,2790,3010,3360,4050,KE,Tropical & Subtropical Moist Broadleaf Forests,2
Nanjing,5386927,63357.3574796636,0.0395828910821243,0.113375235030478,0.0255198909479005,0.022233871038282,0.0811095192410967,0.0372136160254122,0.00238818982918939,0.678576786805517,94.0370842369796,183,0.0,457,Palearctic,32.04,118.76,false,true,970,1180,1430,1690,1810,1940,2080,2300,2610,3010,3480,3620,3680,3810,4150,CH,Temperate Broadleaf & Mixed Forests,1
Naples,3167628,89797.7410050627,0.0404982322902314,0.0652348551476802,0.00447723947201663,0.00127650206486165,0.0682937451473583,0.00791090866372664,0.0887283444712955,0.664968161088416,34.1379433345144,262,0.0,1677,Palearctic,40.83,14.25,false,false,1500,1620,1760,1880,2000,2100,2190,2210,2210,2220,2230,2250,2250,2250,2250,IT,"Mediterranean Forests, Woodlands & Scrub",1
New Taipei [Taipei],8871667,101173.397817723,0.199742846651989,0.0827253998645625,0.00301497689558481,0.00510523721252885,0.111517204753271,0.0161132173517525,0.000658987217293308,0.572500314453822,368.639628962965,1067,0.0,3048,Indomalayan,25.03,121.5,false,true,600,760,960,1230,1740,2020,2220,2450,2710,2680,2640,2610,2600,2650,2860,CH,Tropical & Subtropical Moist Broadleaf Forests,1
New York,16020422,547771.043637378,0.123839682054085,0.0103649482511423,0.0228928625446779,0.0147955279585825,0.152301267049346,0.0269658658273207,0.000228777145073908,0.57886685520798,25.1437391445843,171,0.0,788,Nearctic,40.7,-73.9,true,true,12340,13220,14160,15180,16190,15880,15600,15830,16090,16940,17850,18730,19040,19440,19970,US,Temperate Broadleaf & Mixed Forests,2
Osaka [Kyoto],15696039,317388.440668262,0.0839912087192686,0.0472736377417716,0.00682258157135489,0.00243025781477476,0.0672201748364651,0.00836577145081723,0.000220679502704965,0.686773720419503,100.826109137019,490,0.0,1220,Palearctic,34.63,135.51,true,true,4150,5120,6230,7650,9410,9840,9990,10350,11040,11050,11160,11260,11290,11340,11360,JA,Temperate Broadleaf & Mixed Forests,1
Paris,9712652,163533.477973241,0.0873210087024168,0.0745441787338136,0.0139717307826529,0.0049327592596781,0.0835034369981587,0.0093427027730244,2.17861486983213e-05,0.726362396601557,74.6855539230779,133,0.0,229,Palearctic,48.88,2.43,false,false,6520,6800,7410,7970,8350,8560,8670,8960,9330,9510,9690,9850,9900,9960,10010,FR,Temperate Broadleaf & Mixed Forests,1
Patna,2773694,15565.0506440142,0.0,0.221225457665543,0.025599926004914,0.00868091685968619,0.00271342599498936,0.0412168590109172,0.000417450153075287,0.684336062925289,61.0,0,0.0,321,Indomalayan,25.61,85.13,false,false,280,320,360,410,480,640,880,990,1090,1330,1660,2030,2160,2320,2590,IN,Tropical & Subtropical Moist Broadleaf Forests,1
Philadelphia,3161874,155053.122035866,0.0998612139664546,0.0194133683946513,0.0345894711800688,0.014177945197485,0.169350739452165,0.0346498503810524,0.000248021007091215,0.598589612549964,21.0769432124195,84,0.0,451,Nearctic,39.92,-75.21,true,true,3130,3510,3930,4160,4400,4470,4540,4630,4720,4940,5160,5400,5490,5630,5840,US,"Temperate Grasslands, Savannas & Shrublands",3
Phoenix,3625939,232179.171916718,2.39174919686468e-05,0.0326742837156677,0.00871439682008032,6.00516636585339e-05,0.00835375855882759,0.000994100070598807,0.182548475363061,0.741197401566155,421.317006051148,483,0.0,2084,Nearctic,33.5,-112.11,false,false,220,350,560,700,870,1120,1420,1700,2020,2440,2930,3420,3550,3690,3840,US,Deserts & Xeric Shrublands,1
Port-au-Prince,2770637,28236.6965457812,0.00745732814785103,0.00743889161561326,0.161309317673907,0.00609451961622116,0.0817701313229208,0.00243013426280031,0.0250470256143227,0.655769264307621,122.067617537605,1188,0.0,1865,Neotropic,18.52,-72.34,false,true,130,180,250,340,460,580,700,880,1130,1430,1650,1880,2000,2210,2620,HA,Tropical & Subtropical Dry Broadleaf Forests,4
Prayagraj,2693705,14866.4440268012,0.0024630631748337,0.284962564659432,0.0356945612774701,0.00690752383697806,0.0155528219191373,0.0254031428042173,0.00112131085188072,0.585919692764262,91.0,0,0.0,396,Indomalayan,25.45,81.85,false,false,330,370,420,460,510,570,640,730,830,930,1040,1150,1200,1280,1420,IN,Tropical & Subtropical Moist Broadleaf Forests,1
Puebla,2290865,50587.3621420388,0.000798627789013578,0.265627444109182,0.0115167806490946,1.76183135391005e-05,0.0274332341917436,8.80915676955024e-05,0.0460754135674555,0.64815868587003,2271.69578350658,519,0.0,3175,Neotropic,19.04,-98.19,false,false,230,290,380,490,640,860,1140,1400,1690,1690,1910,2110,2200,2320,2470,MX,Tropical & Subtropical Coniferous Forests,1
Pune,6659210,63257.9871736626,0.00659307920666055,0.274158551165592,0.0538567829210689,0.00314752305143211,0.0336359983080701,0.000668768053874958,0.0129888407112553,0.613556170791533,596.762849353618,290,0.0,914,Indomalayan,18.53,73.85,false,false,580,680,780,920,1100,1340,1640,2000,2430,2980,3660,4410,4670,5010,5540,IN,Tropical & Subtropical Dry Broadleaf Forests,2
Quezon City [Manila],21696971,203743.806905523,0.0411841169758763,0.241053543621747,0.00774445551298172,0.0198662221378962,0.06418384771444,0.0276016992708709,0.000388139506032563,0.573074324163241,101.907918951235,610,0.0,1524,Indomalayan,14.61,120.96,true,true,1540,1870,2270,2830,3530,5000,5960,6890,7970,9400,9960,10760,11100,11660,12790,RP,Tropical & Subtropical Moist Broadleaf Forests,1
Quito,2247965,33624.9236638211,0.00391584517282589,0.017720689029547,0.197495781633444,5.93521468777105e-05,0.0221545271548292,0.0,0.0124875753263117,0.74604752524241,3034.53196392188,1219,0.0,3840,Neotropic,-0.22,-78.52,false,false,210,260,320,400,500,630,780,940,1090,1220,1360,1590,1700,1850,2040,EC,Tropical & Subtropical Moist Broadleaf Forests,1
Recife,3432273,47692.9848571956,0.0862064984823446,0.0342008450538574,0.055447860604969,0.0346330818240375,0.113269443595515,0.0195675428075697,0.0177035267640477,0.590409202645035,0.0,30,0.0,610,Neotropic,-8.08,-34.91,false,true,660,840,1070,1330,1640,1870,2120,2390,2690,2960,3230,3530,3650,3830,4070,BR,Mangroves,2
Rio de Janeiro,9798000,136693.478552867,0.097367081389584,0.0120286820239584,0.0927132927497355,0.0378606616291795,0.061952454959824,0.01110587512611,0.00405830307256304,0.624404827481453,66.2334584448654,305,0.0,1372,Neotropic,-22.72,-43.45,true,true,2950,3590,4370,5390,6640,7560,8580,9090,9600,10170,10800,11470,11750,12170,12780,BR,Tropical & Subtropical Moist Broadleaf Forests,2
Rome,2342858,48092.3690738914,0.0267850518631623,0.171220733978482,0.0163924066665459,0.00220108445542079,0.0989296256060499,0.000408187513122084,0.0580447060883133,0.626018203828904,61.3766988681305,315,0.0,1923,Palearctic,41.87,12.51,false,true,1880,2140,2460,2780,3140,3300,3390,3430,3450,3420,3380,3350,3340,3330,3330,IT,"Mediterranean Forests, Woodlands & Scrub",1
Saint Petersburg,4445843,57271.5657480144,0.0385568265667002,0.0206803586959063,0.0155232063439921,0.0457259149872723,0.0406367941424135,0.0285281648807551,0.0,0.736988957100355,12.1599861839457,40,0.0,160,Palearctic,59.91,30.24,true,true,2900,3140,3400,3680,3980,4320,4640,4840,4990,4840,4730,4590,4550,4510,4480,RS,Boreal Forests/Taiga,2
Salvador,3030619,30731.7754059989,0.0547463960383608,0.0364918315202593,0.0686067866985248,0.0166827888385783,0.101575368240527,0.050911427888168,0.0180391318195305,0.580519876236879,0.0,15,0.0,274,Neotropic,-12.99,-38.48,true,true,400,520,670,850,1070,1340,1680,1980,2330,2640,2970,3330,3480,3700,3950,BR,Tropical & Subtropical Moist Broadleaf Forests,1
San Jose,4609130,173009.010270793,0.0192063011208724,0.00212072582474013,0.0489685171302346,0.00553924190349959,0.0669252821789748,0.0164989800691472,0.0241795794440595,0.734036163923264,110.617649942869,805,0.0,1053,Nearctic,37.3,-121.84,true,true,180,340,610,790,1010,1100,1200,1290,1380,1460,1540,1630,1670,1720,1800,US,"Mediterranean Forests, Woodlands & Scrub",2
Santiago,6332093,71938.9361644936,0.000379870963445318,0.0820363868629504,0.0202096347369841,0.000289472344890595,0.00573703915955393,3.17473591324457e-05,0.0948395405600893,0.793583817095858,1039.09199488304,1889,0.0,5181,Neotropic,-33.43,-70.65,false,true,1320,1620,1980,2290,2650,3140,3720,4200,4620,4960,5280,5600,5720,5880,6080,CI,"Mediterranean Forests, Woodlands & Scrub",2
Santo Domingo,3848434,51684.4091349925,0.030252146731161,0.0138469241280074,0.11672332973329,0.0126574184970066,0.167031607729655,0.0177083063091735,0.0157555532903493,0.582129715558419,1.17461110739377,80,0.0,1750,Neotropic,18.48,-69.89,false,true,220,310,450,610,830,1020,1240,1400,1520,1670,1850,2060,2150,2300,2520,DR,Tropical & Subtropical Moist Broadleaf Forests,1
Seattle,2699627,190373.44940528,0.220381852563371,0.00398201742308069,0.0169345418029032,0.00136326659105827,0.082232632196699,0.0243085883740542,0.00355858140075755,0.557096409914216,71.3510348721383,295,0.0,2704,Nearctic,47.58,-122.31,true,true,800,930,1090,1300,1560,1660,1780,1980,2210,2450,2730,2990,3070,3170,3300,US,Temperate Conifer Forests,1
Seoul,21613973,248741.306167512,0.122596659509492,0.101461969879628,0.0250597521065317,0.00389292256063585,0.0954156729448487,0.0167712006537362,0.0131410149714149,0.545046430487821,84.2886433410633,377,0.0,1101,Palearctic,37.54,126.93,true,true,1020,1550,2360,3450,5310,6810,8260,9550,10540,10260,9920,9820,9800,9760,9740,KS,Temperate Broadleaf & Mixed Forests,1
Singapore,6929445,89599.4168318347,0.0821853584835579,0.0383055278560664,0.0118529425061008,0.00418526527596516,0.0920860470153757,0.0268759468032501,0.000970868787273217,0.578144006428879,20.7778471051705,45,0.0,274,Indomalayan,1.26,103.83,true,true,1020,1310,1630,1880,2080,2260,2420,2710,3020,3480,4020,4330,4440,4590,4810,SN,Tropical & Subtropical Moist Broadleaf Forests,1
Surat,5474727,22849.0284330714,0.00148065302381506,0.335739003676099,0.0082084306849669,0.0040835948855907,0.00616008233889876,0.026034331795211,0.000682485013692131,0.550145303501115,19.4848919837618,30,0.0,914,Indomalayan,21.16,72.83,true,true,230,270,310,380,480,640,880,1140,1470,1980,2700,3560,3840,4170,4640,IN,Mangroves,2
Sydney,3750253,135896.262830374,0.0685105530598649,0.000966989953909791,0.0289194343055147,0.00171684905618484,0.0488304902954842,0.0464432822558475,8.34721457441538e-05,0.744532951796315,54.6380724333989,185,0.0,1303,Australasia,-33.88,151.02,true,true,1690,1910,2140,2390,2670,2960,3230,3430,3630,3840,4080,4260,4330,4430,4580,AS,Temperate Broadleaf & Mixed Forests,1
São Paulo,19114164,200050.696015029,0.0654479263639887,0.00705960942986129,0.0580767045836377,0.011161127919392,0.0879997714130757,0.0151031843545329,0.000676329426356907,0.753987216811905,789.28531594833,427,0.0,1524,Neotropic,-23.58,-46.62,false,true,2330,3040,3970,5490,7620,9610,12090,13400,14780,15950,17100,18330,18840,19580,20540,BR,Tropical & Subtropical Moist Broadleaf Forests,1
Taichung,2224002,32926.653141943,0.0252611260579702,0.309180512319999,0.0319883995405234,0.000703714524727134,0.162568440317393,5.04419406339899e-05,0.00497278410038381,0.46527458119837,624.5133466116,923,0.0,3048,Indomalayan,24.14,120.67,false,true,190,240,290,360,440,540,590,660,750,840,930,1030,1080,1150,1280,CH,Tropical & Subtropical Moist Broadleaf Forests,1
Tehran,12493252,137890.899199393,0.00046110986762765,0.19029872673116,0.081019992469231,4.77223167519179e-06,0.0103847504178978,0.000897179554936057,0.00642793406160706,0.638393913851299,1366.89754381959,1394,0.0,4300,Palearctic,35.77,51.44,false,false,1040,1400,1870,2510,3290,4270,5080,5840,6360,6690,7130,7650,7870,8220,8830,IR,Deserts & Xeric Shrublands,3
Tel Aviv,2410968,48989.8930905133,0.00249543216319237,0.226414251260794,0.048872957178602,0.000272056884266669,0.0145933882433569,0.00236545516556465,0.029503631268221,0.650398414487123,49.6026533074007,264,0.0,995,Palearctic,32.04,34.76,false,true,420,560,740,880,1030,1210,1420,1680,2030,2440,2750,3010,3110,3260,3450,-99,"Mediterranean Forests, Woodlands & Scrub",1
Tianjin,6657409,72238.7866914043,0.0,0.142928950288566,0.0207609073842056,0.0187192319604925,0.0171038604776997,0.00731204004316567,0.0505075142385744,0.742667495607296,0.0,0,0.0,335,Palearctic,39.12,117.18,false,true,2370,2930,3620,4330,4590,4870,5160,5470,5800,6250,6720,7040,7180,7470,8110,CH,Temperate Broadleaf & Mixed Forests,1
Tijuana,4440831,178102.367051547,0.000971795843096232,0.000390940045888833,0.0517431445393999,0.00110163857839442,0.0648068689770285,0.0156616806890822,0.151221949066523,0.663857668779731,185.82311142858,578,0.0,2585,Nearctic,32.52,-117.03,true,true,60,100,150,210,290,360,440,580,760,1020,1290,1470,1550,1670,1800,MX,"Mediterranean Forests, Woodlands & Scrub",1
Tokyo,33204391,543682.483170924,0.0407013533578742,0.0517440953307468,0.00728416070082183,0.00160836858692715,0.0754253861570643,0.0103504091074679,0.000206159210267321,0.742295919740261,28.8264202919964,215,0.0,2390,Palearctic,35.68,139.8,true,true,11280,13710,16680,20280,23300,26620,28550,30300,32530,33590,34450,35330,35680,36090,36370,JA,Temperate Broadleaf & Mixed Forests,1
Toronto,6038065,202346.631659665,0.06575405310094,0.0254475056630256,0.0436007213557361,0.00144775080670858,0.100148503459364,0.0574934823729183,0.00145172922871942,0.704656254012588,131.769979056448,253,0.0,519,Nearctic,43.72,-79.41,false,false,1070,1360,1740,2090,2540,2770,3010,3360,3810,4200,4610,5040,5210,5450,5690,CA,Temperate Broadleaf & Mixed Forests,1
Vadodara,2112114,23048.4512469047,0.000148201918430245,0.371076826421554,0.00191848836367937,0.00167395519826947,0.0266873878133272,0.000222302877645368,0.00455125185579315,0.593647484592086,39.8444376480108,46,0.0,671,Indomalayan,22.3,73.2,false,true,210,250,300,370,450,570,720,890,1100,1270,1460,1680,1760,1880,2080,IN,Tropical & Subtropical Dry Broadleaf Forests,1
Vancouver,2019425,71141.0403594215,0.178655220083334,0.00838937314162832,0.0211464284847933,0.00349285075732157,0.0710533923073109,0.0507538541498095,0.00129108605174282,0.610788053513878,52.0693111165156,621,0.0,2069,Nearctic,49.27,-122.96,true,true,560,590,620,840,1040,1150,1250,1360,1560,1790,1960,2090,2150,2220,2310,CA,Temperate Conifer Forests,1
Varanasi,4191050,48192.9688158123,0.0,0.632556884629835,0.0133248287918993,0.00291515060604813,0.0247780832391948,0.0137630206432035,0.00192307947586891,0.302999311052496,80.4850023194611,61,0.0,427,Indomalayan,25.28,82.95,false,false,350,410,480,540,600,680,780,890,1010,1110,1200,1300,1350,1430,1600,IN,Tropical & Subtropical Moist Broadleaf Forests,1
Washington D.C.,3380900,156450.29462446,0.134793219354765,0.00677222857970682,0.0154468029160683,0.0022299746614775,0.182857952516894,0.0138039051010002,0.000318515907516398,0.643020795118098,70.9207059834598,148,0.0,797,Nearctic,38.89,-76.95,false,true,1300,1540,1820,2140,2490,2630,2780,3060,3380,3650,3950,4240,4340,4460,4640,US,Temperate Broadleaf & Mixed Forests,2
Xi'an,5095081,63657.7647880054,0.0,0.111891036553217,0.0284273081811437,0.00268282613358442,0.0224614412240584,0.00258809517370954,0.00953545213793835,0.822413840596348,656.781554203157,304,0.0,2926,Palearctic,34.26,108.9,false,false,710,840,1010,1200,1440,1720,2050,2430,2870,3270,3720,3930,4010,4180,4560,CH,Temperate Broadleaf & Mixed Forests,1
Xiamen,4105099,51885.3572610416,0.0670054793117606,0.0974813403453523,0.0242286260592547,0.0052791602343014,0.104747233695712,0.0117693338796283,0.019147995681118,0.492844037177912,26.9222479342106,152,0.0,1067,Indomalayan,24.46,118.07,false,true,210,240,280,320,360,420,480,560,640,1120,1980,2370,2520,2740,3060,CH,Tropical & Subtropical Moist Broadleaf Forests,1
Yangon,5694300,52881.8186645678,0.0113563638928597,0.202371568658873,0.00507970649530675,0.0125726936775312,0.0498151112324136,0.0336783293885563,0.00149014119684113,0.646914526186663,17.1408469630246,30,0.0,289,Indomalayan,16.87,96.12,false,true,1300,1440,1590,1760,1950,2150,2380,2630,2910,3210,3550,3930,4090,4350,4840,BM,Tropical & Subtropical Moist Broadleaf Forests,2